[{"geoAddress":{"StreetAddress":"273 BOWERY New York NY ","City":"New York","State":"NY","Zip":""},"geoLat":"40.7236736","geoLong":"-73.9924832"},{"geoAddress":{"StreetAddress":"232 W 11TH ST New York NY ","City":"New York","State":"NY","Zip":""},"geoLat":"40.736193","geoLong":"-74.0028632"},{"geoAddress":{"StreetAddress":"283 W BROADWAY New York NY ","City":"New York","State":"NY","Zip":""},"geoLat":"40.6344072","geoLong":"-74.1170382"},{"geoAddress":{"StreetAddress":"232 W 11TH ST New York NY ","City":"New York","State":"NY","Zip":""},"geoLat":"40.736193","geoLong":"-74.0028632"},{"geoAddress":{"StreetAddress":"220 W HOUSTON ST New York NY ","City":"New York","State":"NY","Zip":""},"geoLat":"40.7286385","geoLong":"-74.0045871"},{"geoAddress":{"StreetAddress":"253 CENTER ST New York NY ","City":"New York","State":"NY","Zip":""},"geoLat":"40.7206323","geoLong":"-73.9979756"},{"geoAddress":{"StreetAddress":"273 BOWERY New York NY ","City":"New York","State":"NY","Zip":""},"geoLat":"40.7236736","geoLong":"-73.9924832"},{"geoAddress":{"StreetAddress":"487 HUDSON ST New York NY ","City":"New York","State":"NY","Zip":""},"geoLat":"40.7325966203121","geoLong":"-74.0066606628545"},{"geoAddress":{"StreetAddress":"292 HENRY ST New York NY ","City":"New York","State":"NY","Zip":""},"geoLat":"40.7137143","geoLong":"-73.983033"},{"geoAddress":{"StreetAddress":"232 W 11TH ST New York NY ","City":"New York","State":"NY","Zip":""},"geoLat":"40.736193","geoLong":"-74.0028632"},{"geoAddress":{"StreetAddress":"141 HENRY ST New York NY ","City":"New York","State":"NY","Zip":""},"geoLat":"40.7134487","geoLong":"-73.9906625"},{"geoAddress":{"StreetAddress":"220 W HOUSTON ST New York NY ","City":"New York","State":"NY","Zip":""},"geoLat":"40.7286385","geoLong":"-74.0045871"},{"geoAddress":{"StreetAddress":"83 CHRISTOPHER ST New York NY ","City":"New York","State":"NY","Zip":""},"geoLat":"40.7335702","geoLong":"-74.0037456"},{"geoAddress":{"StreetAddress":"50 PERRY ST New York NY ","City":"New York","State":"NY","Zip":""},"geoLat":"40.7354854","geoLong":"-74.0031569"},{"geoAddress":{"StreetAddress":"232 W 11TH ST New York NY ","City":"New York","State":"NY","Zip":""},"geoLat":"40.736193","geoLong":"-74.0028632"},{"geoAddress":{"StreetAddress":"224 WAVERLY PL New York NY ","City":"New York","State":"NY","Zip":""},"geoLat":"40.7360657","geoLong":"-74.0019452"},{"geoAddress":{"StreetAddress":"154 SULLIVAN ST New York NY ","City":"New York","State":"NY","Zip":""},"geoLat":"40.7273786","geoLong":"-74.0017414"},{"geoAddress":{"StreetAddress":"273 BOWERY ST New York NY ","City":"New York","State":"NY","Zip":""},"geoLat":"40.7236736","geoLong":"-73.9924832"},{"geoAddress":{"StreetAddress":"371 6TH AVE New York NY ","City":"New York","State":"NY","Zip":""},"geoLat":"40.6701581","geoLong":"-73.9819879"},{"geoAddress":{"StreetAddress":"155 SULLIVAN ST New York NY ","City":"New York","State":"NY","Zip":""},"geoLat":"40.6792556","geoLong":"-74.0145369"},{"geoAddress":{"StreetAddress":"7 E 10TH STRERT New York NY ","City":"New York","State":"NY","Zip":""},"geoLat":"40.7332068","geoLong":"-73.9946888"},{"geoAddress":{"StreetAddress":"232 W 11TH ST New York NY ","City":"New York","State":"NY","Zip":""},"geoLat":"40.736193","geoLong":"-74.0028632"},{"geoAddress":{"StreetAddress":"81 CHRISTOPHER ST New York NY ","City":"New York","State":"NY","Zip":""},"geoLat":"40.6367254","geoLong":"-74.1643744"},{"geoAddress":{"StreetAddress":"273 BOWERY New York NY ","City":"New York","State":"NY","Zip":""},"geoLat":"40.7236736","geoLong":"-73.9924832"},{"geoAddress":{"StreetAddress":"232 W 11TH ST New York NY ","City":"New York","State":"NY","Zip":""},"geoLat":"40.736193","geoLong":"-74.0028632"},{"geoAddress":{"StreetAddress":"232 W 11TH ST New York NY ","City":"New York","State":"NY","Zip":""},"geoLat":"40.736193","geoLong":"-74.0028632"},{"geoAddress":{"StreetAddress":"83 CHRISTOPHER ST New York NY ","City":"New York","State":"NY","Zip":""},"geoLat":"40.7335702","geoLong":"-74.0037456"},{"geoAddress":{"StreetAddress":"220 W HOUSTON ST New York NY ","City":"New York","State":"NY","Zip":""},"geoLat":"40.7286385","geoLong":"-74.0045871"},{"geoAddress":{"StreetAddress":"273 BOWERY New York NY ","City":"New York","State":"NY","Zip":""},"geoLat":"40.7236736","geoLong":"-73.9924832"}]