[{"geoAddress":{"StreetAddress":"20 CARDINAL HAYES PL New York NY ","City":"New York","State":"NY","Zip":""},"geoLat":"40.7132514","geoLong":"-74.002398"},{"geoAddress":{"StreetAddress":"20 CARDINAL HAYES PL New York NY ","City":"New York","State":"NY","Zip":""},"geoLat":"40.7132514","geoLong":"-74.002398"},{"geoAddress":{"StreetAddress":"29 MOTT ST New York NY ","City":"New York","State":"NY","Zip":""},"geoLat":"40.7147965","geoLong":"-73.9990363"},{"geoAddress":{"StreetAddress":"49 FULTON ST New York NY ","City":"New York","State":"NY","Zip":""},"geoLat":"40.7080393","geoLong":"-74.0042361"},{"geoAddress":{"StreetAddress":"44 JOHN ST New York NY ","City":"New York","State":"NY","Zip":""},"geoLat":"40.7091732","geoLong":"-74.0080677"},{"geoAddress":{"StreetAddress":"49 FULTON ST New York NY ","City":"New York","State":"NY","Zip":""},"geoLat":"40.7080393","geoLong":"-74.0042361"},{"geoAddress":{"StreetAddress":"20 CARDINAL HAYES PL New York NY ","City":"New York","State":"NY","Zip":""},"geoLat":"40.7132514","geoLong":"-74.002398"},{"geoAddress":{"StreetAddress":"20 CARDINAL HAYES PL New York NY ","City":"New York","State":"NY","Zip":""},"geoLat":"40.7132514","geoLong":"-74.002398"},{"geoAddress":{"StreetAddress":"22 BARCLAY ST New York NY ","City":"New York","State":"NY","Zip":""},"geoLat":"40.7125016","geoLong":"-74.0094639"},{"geoAddress":{"StreetAddress":"22 BARCLAY ST New York NY ","City":"New York","State":"NY","Zip":""},"geoLat":"40.7125016","geoLong":"-74.0094639"},{"geoAddress":{"StreetAddress":"283 W BROADWAY New York NY ","City":"New York","State":"NY","Zip":""},"geoLat":"40.6344072","geoLong":"-74.1170382"},{"geoAddress":{"StreetAddress":"125 BARCLAY ST New York NY ","City":"New York","State":"NY","Zip":""},"geoLat":"40.7143477","geoLong":"-74.0130151"},{"geoAddress":{"StreetAddress":"49 FULTON ST New York NY ","City":"New York","State":"NY","Zip":""},"geoLat":"40.7080393","geoLong":"-74.0042361"},{"geoAddress":{"StreetAddress":"49 FULTON ST New York NY ","City":"New York","State":"NY","Zip":""},"geoLat":"40.7080393","geoLong":"-74.0042361"},{"geoAddress":{"StreetAddress":"20 CARDINAL HAYES PL New York NY ","City":"New York","State":"NY","Zip":""},"geoLat":"40.7132514","geoLong":"-74.002398"},{"geoAddress":{"StreetAddress":"283 W BROADWAY New York NY ","City":"New York","State":"NY","Zip":""},"geoLat":"40.6344072","geoLong":"-74.1170382"},{"geoAddress":{"StreetAddress":"49 FULTON ST New York NY ","City":"New York","State":"NY","Zip":""},"geoLat":"40.7080393","geoLong":"-74.0042361"},{"geoAddress":{"StreetAddress":"22 BARCLAY ST New York NY ","City":"New York","State":"NY","Zip":""},"geoLat":"40.7125016","geoLong":"-74.0094639"},{"geoAddress":{"StreetAddress":"20 CARDINAL HAYES PL New York NY ","City":"New York","State":"NY","Zip":""},"geoLat":"40.7132514","geoLong":"-74.002398"},{"geoAddress":{"StreetAddress":"283 W BROADWAY New York NY ","City":"New York","State":"NY","Zip":""},"geoLat":"40.6344072","geoLong":"-74.1170382"},{"geoAddress":{"StreetAddress":"283 W BROADWAY New York NY ","City":"New York","State":"NY","Zip":""},"geoLat":"40.6344072","geoLong":"-74.1170382"},{"geoAddress":{"StreetAddress":"283 W BROADWAY New York NY ","City":"New York","State":"NY","Zip":""},"geoLat":"40.6344072","geoLong":"-74.1170382"}]