[{"geoAddress":{"StreetAddress":"7 E 10TH ST New York NY ","City":"New York","State":"NY","Zip":""},"geoLat":"40.7332068","geoLong":"-73.9946888"},{"geoAddress":{"StreetAddress":"155 E 22ND ST New York NY ","City":"New York","State":"NY","Zip":""},"geoLat":"40.7384244","geoLong":"-73.9840055"},{"geoAddress":{"StreetAddress":"61 FOURTH AVE New York NY ","City":"New York","State":"NY","Zip":""},"geoLat":"40.7307719","geoLong":"-73.9903164"},{"geoAddress":{"StreetAddress":"208 W 13TH ST New York NY ","City":"New York","State":"NY","Zip":""},"geoLat":"40.7381228","geoLong":"-74.0010304"},{"geoAddress":{"StreetAddress":"123 E 15TH ST New York NY ","City":"New York","State":"NY","Zip":""},"geoLat":"40.7346341","geoLong":"-73.9879773"},{"geoAddress":{"StreetAddress":"61 GRAMERCY PARK N New York NY ","City":"New York","State":"NY","Zip":""},"geoLat":"40.7387068","geoLong":"-73.986572"},{"geoAddress":{"StreetAddress":"155 E 22ND ST New York NY ","City":"New York","State":"NY","Zip":""},"geoLat":"40.7384244","geoLong":"-73.9840055"},{"geoAddress":{"StreetAddress":"127 E 22ND ST New York NY ","City":"New York","State":"NY","Zip":""},"geoLat":"40.7390247","geoLong":"-73.9854161"},{"geoAddress":{"StreetAddress":"602 E 9TH ST New York NY ","City":"New York","State":"NY","Zip":""},"geoLat":"40.7260409","geoLong":"-73.9800393"},{"geoAddress":{"StreetAddress":"125 W 14TH ST New York NY ","City":"New York","State":"NY","Zip":""},"geoLat":"40.7379244","geoLong":"-73.9976813"},{"geoAddress":{"StreetAddress":"346 W 20TH ST New York NY ","City":"New York","State":"NY","Zip":""},"geoLat":"40.7441452","geoLong":"-74.0019191"},{"geoAddress":{"StreetAddress":"125 W 14TH ST New York NY ","City":"New York","State":"NY","Zip":""},"geoLat":"40.7379244","geoLong":"-73.9976813"},{"geoAddress":{"StreetAddress":"414 E 14TH ST New York NY ","City":"New York","State":"NY","Zip":""},"geoLat":"40.7309298","geoLong":"-73.9819876"},{"geoAddress":{"StreetAddress":"119 NINTH AVE New York NY ","City":"New York","State":"NY","Zip":""},"geoLat":"40.7432442","geoLong":"-74.0039393"},{"geoAddress":{"StreetAddress":"202 W 24 ST New York NY ","City":"New York","State":"NY","Zip":""},"geoLat":"40.7449478","geoLong":"-73.995862"},{"geoAddress":{"StreetAddress":"28 GRAMERCY PARK S New York NY ","City":"New York","State":"NY","Zip":""},"geoLat":"40.7371499","geoLong":"-73.9853123"},{"geoAddress":{"StreetAddress":"50 E 7TH ST New York NY ","City":"New York","State":"NY","Zip":""},"geoLat":"40.6519369","geoLong":"-73.9750389"},{"geoAddress":{"StreetAddress":"273 BOWERY New York NY ","City":"New York","State":"NY","Zip":""},"geoLat":"40.7236736","geoLong":"-73.9924832"},{"geoAddress":{"StreetAddress":"802 BROADWAY New York NY ","City":"New York","State":"NY","Zip":""},"geoLat":"40.7320395","geoLong":"-73.991189"},{"geoAddress":{"StreetAddress":"28 GRAMMERCY PARK S New York NY ","City":"New York","State":"NY","Zip":""},"geoLat":"40.7371499","geoLong":"-73.9853123"},{"geoAddress":{"StreetAddress":"209 E 16TH ST New York NY ","City":"New York","State":"NY","Zip":""},"geoLat":"40.7345135","geoLong":"-73.9854432"},{"geoAddress":{"StreetAddress":"44 2ND AVE New York NY ","City":"New York","State":"NY","Zip":""},"geoLat":"40.7251086","geoLong":"-73.9899858"},{"geoAddress":{"StreetAddress":"229 W 14TH ST New York NY ","City":"New York","State":"NY","Zip":""},"geoLat":"40.7392489","geoLong":"-74.0008788"},{"geoAddress":{"StreetAddress":"229 W 14TH ST New York NY ","City":"New York","State":"NY","Zip":""},"geoLat":"40.7392489","geoLong":"-74.0008788"},{"geoAddress":{"StreetAddress":"208 W 13TH ST New York NY ","City":"New York","State":"NY","Zip":""},"geoLat":"40.7381228","geoLong":"-74.0010304"},{"geoAddress":{"StreetAddress":"28 GRAMERCY PARK S New York NY ","City":"New York","State":"NY","Zip":""},"geoLat":"40.7371499","geoLong":"-73.9853123"},{"geoAddress":{"StreetAddress":"208 W 13TH ST New York NY ","City":"New York","State":"NY","Zip":""},"geoLat":"40.7381228","geoLong":"-74.0010304"},{"geoAddress":{"StreetAddress":"307 W 26TH ST New York NY ","City":"New York","State":"NY","Zip":""},"geoLat":"40.7474685","geoLong":"-73.9974137"},{"geoAddress":{"StreetAddress":"343 W 25TH ST New York NY ","City":"New York","State":"NY","Zip":""},"geoLat":"40.747411","geoLong":"-73.9992698"},{"geoAddress":{"StreetAddress":"80 SAINT MARK New York NY ","City":"New York","State":"NY","Zip":""},"geoLat":"40.6467134616094","geoLong":"-74.0845369091234"},{"geoAddress":{"StreetAddress":"208 W 13TH ST New York NY ","City":"New York","State":"NY","Zip":""},"geoLat":"40.7381228","geoLong":"-74.0010304"},{"geoAddress":{"StreetAddress":"51 E 25TH ST New York NY ","City":"New York","State":"NY","Zip":""},"geoLat":"40.7419488","geoLong":"-73.9861549"},{"geoAddress":{"StreetAddress":"155 E 22ND ST New York NY ","City":"New York","State":"NY","Zip":""},"geoLat":"40.7384244","geoLong":"-73.9840055"},{"geoAddress":{"StreetAddress":"7 E 10TH ST New York NY ","City":"New York","State":"NY","Zip":""},"geoLat":"40.6482599","geoLong":"-73.9704806"},{"geoAddress":{"StreetAddress":"315 W 22ND ST New York NY ","City":"New York","State":"NY","Zip":""},"geoLat":"40.7450587","geoLong":"-73.9997029"},{"geoAddress":{"StreetAddress":"15 RUTHERFORD PL New York NY ","City":"New York","State":"NY","Zip":""},"geoLat":"40.7337834","geoLong":"-73.985098"},{"geoAddress":{"StreetAddress":"25 E 15TH CONFERENCE New York NY ","City":"New York","State":"NY","Zip":""},"geoLat":"40.7361047","geoLong":"-73.9914936"},{"geoAddress":{"StreetAddress":"175 9TH AVE New York NY ","City":"New York","State":"NY","Zip":""},"geoLat":"40.6717748","geoLong":"-73.9913909"},{"geoAddress":{"StreetAddress":"19 UNION SQ W New York NY ","City":"New York","State":"NY","Zip":""},"geoLat":"40.7360864","geoLong":"-73.9912277"},{"geoAddress":{"StreetAddress":"155 E 22ND ST New York NY ","City":"New York","State":"NY","Zip":""},"geoLat":"40.7384244","geoLong":"-73.9840055"},{"geoAddress":{"StreetAddress":"423 E 23RD ST New York NY ","City":"New York","State":"NY","Zip":""},"geoLat":"40.7368113","geoLong":"-73.9772015"},{"geoAddress":{"StreetAddress":"209 E 16TH ST New York NY ","City":"New York","State":"NY","Zip":""},"geoLat":"40.6452634","geoLong":"-73.9641398"},{"geoAddress":{"StreetAddress":"411 E 12TH ST New York NY ","City":"New York","State":"NY","Zip":""},"geoLat":"40.729824","geoLong":"-73.982816"},{"geoAddress":{"StreetAddress":"209 E 16TH ST New York NY ","City":"New York","State":"NY","Zip":""},"geoLat":"40.6452634","geoLong":"-73.9641398"},{"geoAddress":{"StreetAddress":"239 E 21ST ST New York NY ","City":"New York","State":"NY","Zip":""},"geoLat":"40.7369141","geoLong":"-73.9823276"},{"geoAddress":{"StreetAddress":"12 W 12TH ST New York NY ","City":"New York","State":"NY","Zip":""},"geoLat":"40.7348062","geoLong":"-73.9951634"},{"geoAddress":{"StreetAddress":"44 2ND AVE New York NY ","City":"New York","State":"NY","Zip":""},"geoLat":"40.7251086","geoLong":"-73.9899858"},{"geoAddress":{"StreetAddress":"208 W 13TH ST New York NY ","City":"New York","State":"NY","Zip":""},"geoLat":"40.7381228","geoLong":"-74.0010304"},{"geoAddress":{"StreetAddress":"12 W 11TH ST New York NY ","City":"New York","State":"NY","Zip":""},"geoLat":"40.7341868","geoLong":"-73.9957178"},{"geoAddress":{"StreetAddress":"116 W 11TH ST New York NY ","City":"New York","State":"NY","Zip":""},"geoLat":"40.7355598","geoLong":"-73.9990141"},{"geoAddress":{"StreetAddress":"80 5TH AVE New York NY ","City":"New York","State":"NY","Zip":""},"geoLat":"40.7358709","geoLong":"-73.9939317"},{"geoAddress":{"StreetAddress":"116 W 11TH ST New York NY ","City":"New York","State":"NY","Zip":""},"geoLat":"40.7355598","geoLong":"-73.9990141"},{"geoAddress":{"StreetAddress":"155 E 22ND ST New York NY ","City":"New York","State":"NY","Zip":""},"geoLat":"40.7384244","geoLong":"-73.9840055"},{"geoAddress":{"StreetAddress":"319 EASTR 24TH ST New York NY ","City":"New York","State":"NY","Zip":""},"geoLat":"40.6639307188879","geoLong":"-73.9382749875207"},{"geoAddress":{"StreetAddress":"10 E UNION SQ New York NY ","City":"New York","State":"NY","Zip":""},"geoLat":"40.7348335","geoLong":"-73.9897815"},{"geoAddress":{"StreetAddress":"206208 E 11TH ST New York NY ","City":"New York","State":"NY","Zip":""},"geoLat":"40.6639307188879","geoLong":"-73.9382749875207"},{"geoAddress":{"StreetAddress":"123 E 15TH ST New York NY ","City":"New York","State":"NY","Zip":""},"geoLat":"40.7346341","geoLong":"-73.9879773"},{"geoAddress":{"StreetAddress":"411 E 12TH ST New York NY ","City":"New York","State":"NY","Zip":""},"geoLat":"40.729824","geoLong":"-73.982816"},{"geoAddress":{"StreetAddress":"125 W 14TH ST New York NY ","City":"New York","State":"NY","Zip":""},"geoLat":"40.7379244","geoLong":"-73.9976813"},{"geoAddress":{"StreetAddress":"208 W 13TH ST New York NY ","City":"New York","State":"NY","Zip":""},"geoLat":"40.7381228","geoLong":"-74.0010304"},{"geoAddress":{"StreetAddress":"10 UNION SQ E New York NY ","City":"New York","State":"NY","Zip":""},"geoLat":"40.7348335","geoLong":"-73.9897815"},{"geoAddress":{"StreetAddress":"155 W 22ND ST New York NY ","City":"New York","State":"NY","Zip":""},"geoLat":"40.7431787","geoLong":"-73.9952777"},{"geoAddress":{"StreetAddress":"208 W 13TH ST New York NY ","City":"New York","State":"NY","Zip":""},"geoLat":"40.7381228","geoLong":"-74.0010304"},{"geoAddress":{"StreetAddress":"12 W 12TH ST New York NY ","City":"New York","State":"NY","Zip":""},"geoLat":"40.7348062","geoLong":"-73.9951634"},{"geoAddress":{"StreetAddress":"20 WASHINGTON SQ N New York NY ","City":"New York","State":"NY","Zip":""},"geoLat":"40.7319436","geoLong":"-73.9977667"},{"geoAddress":{"StreetAddress":"344 E 14TH ST New York NY ","City":"New York","State":"NY","Zip":""},"geoLat":"40.7314102","geoLong":"-73.9832013"},{"geoAddress":{"StreetAddress":"155 W 22ND ST New York NY ","City":"New York","State":"NY","Zip":""},"geoLat":"40.7431787","geoLong":"-73.9952777"},{"geoAddress":{"StreetAddress":"208 W 13TH ST New York NY ","City":"New York","State":"NY","Zip":""},"geoLat":"40.7381228","geoLong":"-74.0010304"},{"geoAddress":{"StreetAddress":"602 E 9TH ST New York NY ","City":"New York","State":"NY","Zip":""},"geoLat":"40.7260409","geoLong":"-73.9800393"},{"geoAddress":{"StreetAddress":"208 W 13TH ST New York NY ","City":"New York","State":"NY","Zip":""},"geoLat":"40.7381228","geoLong":"-74.0010304"},{"geoAddress":{"StreetAddress":"208 W 13TH ST New York NY ","City":"New York","State":"NY","Zip":""},"geoLat":"40.7381228","geoLong":"-74.0010304"},{"geoAddress":{"StreetAddress":"19 UNION SQ W New York NY ","City":"New York","State":"NY","Zip":""},"geoLat":"40.7360864","geoLong":"-73.9912277"},{"geoAddress":{"StreetAddress":"173 E 3RD ST New York NY ","City":"New York","State":"NY","Zip":""},"geoLat":"40.7233431","geoLong":"-73.9843062"},{"geoAddress":{"StreetAddress":"50 E 7TH ST New York NY ","City":"New York","State":"NY","Zip":""},"geoLat":"40.7276522","geoLong":"-73.9875923"}]