[{"address":"20 Cardinal Hayes Place","building":"St Andrews Church","city":"New York","state":"New York","lat":"40.7132514","long":"-74.002398"},{"address":"20 Cardinal Hayes Place","building":"St. Andrew&apos;s Church","city":"New York","state":"New York","lat":"40.7132514","long":"-74.002398"},{"address":"29 Mott Street","building":"Church of the Transfiguration","city":"New York","state":"New York","lat":"40.7147965","long":"-73.9990363"},{"address":"49 Fulton Street","building":"St. Margaret&apos;s Residence","city":"New York","state":"New York","lat":"40.7080393","long":"-74.0042361"},{"address":"44 John Street","building":"","city":"New York","state":"New York","lat":"40.7091732","long":"-74.0080677"},{"address":"49 Fulton Street","building":"","city":"New York","state":"New York","lat":"40.7080393","long":"-74.0042361"},{"address":"20 Cardinal Hayes Place","building":"St. Andrew&apos;s Church","city":"New York","state":"New York","lat":"40.7132514","long":"-74.002398"},{"address":"22 Barclay Street","building":"St. Peter&apos;s Church","city":"New York","state":"New York","lat":"40.7125016","long":"-74.0094639"},{"address":"20 Cardinal Hayes Place","building":"St. Andrew&apos;s Church","city":"New York","state":"New York","lat":"40.7132514","long":"-74.002398"},{"address":"22 Barclay Street (Basement)","building":"Saint Peter&apos;s Church","city":"New York","state":"New York","lat":"40.7125016","long":"-74.0094639"},{"address":"283 West Broadway","building":"Hazelden Tribeca","city":"New York","state":"New York","lat":"40.7144166","long":"-73.9843646"},{"address":"125 Barclay Street","building":"Municipal Union Bldg DC 37","city":"New York","state":"New York","lat":"40.7143477","long":"-74.0130151"},{"address":"49 Fulton Street","building":"St. Margaret&apos;s House","city":"New York","state":"New York","lat":"40.7080393","long":"-74.0042361"},{"address":"49 Fulton Street","building":"St. Margaret&apos;s House","city":"New York","state":"New York","lat":"40.7080393","long":"-74.0042361"},{"address":"20 Cardinal Hayes Place","building":"Church of Saint Andrew","city":"New York","state":"New York","lat":"40.7132514","long":"-74.002398"},{"address":"283 West Broadway","building":"Tribeca 12 Building","city":"New York","state":"New York","lat":"40.6344072","long":"-74.1170382"},{"address":"49 Fulton Street","building":"","city":"New York","state":"New York","lat":"40.7080393","long":"-74.0042361"},{"address":"22 Barclay Street- basement chapel","building":"St. Peter&apos;s Church","city":"New York","state":"New York","lat":"40.7125016","long":"-74.0094639"},{"address":"20 Cardinal Hayes Place","building":"St. Andrew&apos;s Church","city":"New York","state":"New York","lat":"40.7132514","long":"-74.002398"},{"address":"283 West Broadway","building":"Hazelden Center","city":"New York","state":"New York","lat":"40.7144166","long":"-73.9843646"},{"address":"283 West Broadway","building":"Hazelden Center","city":"New York","state":"New York","lat":"40.6344072","long":"-74.1170382"},{"address":"283 W. Broadway","building":"Hazelden Center","city":"New York","state":"New York","lat":"40.6344072","long":"-74.1170382"}]